,libelle,commune,lat,long
0,CENTRE HOSPITALIER REGIONAL ET UNIVERSITAIRE,LILLE,50.6086696715,3.03596840781
1,CHR CENTRE HOSPITALIER DE SECLIN,SECLIN,50.5466414558,3.01781005107
2,CENTRE HOSPITALIER GUSTAVE DRON,TOURCOING,50.7446443074,3.18029017856
3,CHR CENTRE HOSPITALIER LOOS HAUBOURDIN,LOOS,50.6105672954,3.00789073236
4,CHR CENTRE HOSPITALIER,ARMENTIERES,50.6846779019,2.86783660669
5,HOPITAL SAINT PHILIBERT GROUPE INSTITUT CATHOLIQUE,(LOMME) LILLE,50.6513947118,2.9731517883
6,CENTRE HOSPITALIER DE ROUBAIX VICTOR PROVO,ROUBAIX,50.679169334,3.17382832463
